City_ID,City,Country,Lat,Lng,Max Temp,Humidity,Cloudiness,Wind Speed,Current Weather Description,Rain (inches),Snow (inches)
0,Hasaki,JP,35.73,140.83,68.0,100,75,11.41,light intensity shower rain,0.0,0.0
1,Carnarvon,AU,-24.87,113.63,69.8,64,0,9.17,clear sky,0.0,0.0
2,Belmopan,BZ,17.25,-88.77,81.0,81,4,4.16,clear sky,0.0,0.0
3,Talnakh,RU,69.49,88.4,59.0,44,61,15.66,broken clouds,0.0,0.0
4,Punta Arenas,CL,-53.15,-70.92,35.6,93,93,4.7,overcast clouds,0.0,0.0
5,Airai,TL,-8.93,125.41,66.11,67,92,4.43,overcast clouds,0.0,0.0
6,Kaili,ID,-3.46,120.21,75.49,80,93,2.33,overcast clouds,0.0,0.0
7,Albany,US,42.6,-73.97,82.0,54,41,3.2,light rain,0.2,0.0
8,Kodiak,US,57.79,-152.41,53.6,81,90,13.87,overcast clouds,0.0,0.0
9,Skawina,PL,49.98,19.83,63.0,93,75,9.17,broken clouds,0.0,0.0
10,Ushuaia,AR,-54.8,-68.3,35.6,80,63,5.82,broken clouds,0.0,0.0
11,Tuktoyaktuk,CA,69.45,-133.04,50.0,71,75,11.41,broken clouds,0.0,0.0
12,Kilindoni,TZ,-7.91,39.67,78.71,80,95,18.79,overcast clouds,0.0,0.0
13,Busselton,AU,-33.65,115.33,62.01,49,100,23.96,overcast clouds,0.0,0.0
14,Hambantota,LK,6.12,81.12,80.6,88,20,5.82,few clouds,0.0,0.0
15,Havelock,US,34.88,-76.9,79.0,93,0,4.79,light rain,0.16,0.0
16,Bredasdorp,ZA,-34.53,20.04,50.0,93,99,4.14,overcast clouds,0.0,0.0
17,Mahebourg,MU,-20.41,57.7,69.8,83,40,10.29,shower rain,0.0,0.0
18,Havre-Saint-Pierre,CA,50.23,-63.6,53.6,93,90,9.17,overcast clouds,0.0,0.0
19,Mataura,NZ,-46.19,168.86,39.0,83,0,3.0,clear sky,0.0,0.0
20,Adrar,MR,20.5,-10.07,97.74,11,1,13.51,clear sky,0.0,0.0
21,Gerash,IR,27.67,54.14,73.4,28,0,4.36,clear sky,0.0,0.0
22,Lebu,CL,-37.62,-73.65,50.86,84,97,17.67,overcast clouds,0.0,0.0
23,Sobolevo,RU,54.43,31.9,55.4,91,58,8.84,broken clouds,0.0,0.0
24,Port Alfred,ZA,-33.59,26.89,57.99,92,49,5.01,scattered clouds,0.0,0.0
25,Mar Del Plata,AR,-38.0,-57.56,50.0,93,20,3.36,few clouds,0.0,0.0
26,Tura,IN,25.52,90.22,78.17,86,2,4.94,clear sky,0.0,0.0
27,Ekibastuz,KZ,51.67,75.37,64.56,44,19,11.72,few clouds,0.0,0.0
28,Marawi,PH,8.0,124.29,84.0,75,22,4.0,few clouds,0.0,0.0
29,Shiraz,IR,29.6,52.54,69.8,21,0,4.7,clear sky,0.0,0.0
30,Sao Filipe,CV,14.9,-24.5,76.55,82,20,9.6,few clouds,0.0,0.0
31,Thompson,CA,55.74,-97.86,60.8,82,75,5.82,broken clouds,0.0,0.0
32,New Norfolk,AU,-42.78,147.06,55.0,93,99,4.07,moderate rain,1.78,0.0
33,Arlit,NE,18.74,7.39,90.05,11,44,4.27,scattered clouds,0.0,0.0
34,Vila Franca Do Campo,PT,37.72,-25.43,64.4,93,40,6.44,scattered clouds,0.0,0.0
35,Padang,ID,-0.95,100.35,79.09,80,96,4.72,light rain,0.33,0.0
36,Bluff,NZ,-46.6,168.33,39.0,83,0,3.0,clear sky,0.0,0.0
37,Shibetsu,JP,43.66,145.13,57.2,76,75,9.17,broken clouds,0.0,0.0
38,Griffith,US,41.53,-87.42,77.0,64,1,4.7,clear sky,0.0,0.0
39,Vaini,TO,-21.2,-175.2,82.4,83,40,6.93,scattered clouds,0.0,0.0
40,Bengkulu,ID,-3.8,102.27,77.88,86,100,3.96,overcast clouds,0.0,0.0
41,Bishop Auckland,GB,54.66,-1.68,52.0,92,95,8.08,overcast clouds,0.0,0.0
42,Ganzhou,CN,28.82,115.43,82.36,86,100,3.56,light rain,0.18,0.0
43,The Valley,AI,18.22,-63.06,84.2,79,40,13.87,scattered clouds,0.0,0.0
44,Clyde River,CA,70.47,-68.59,37.4,93,1,3.36,clear sky,0.0,0.0
45,Esperance,AU,-33.87,121.9,46.4,70,0,17.22,clear sky,0.0,0.0
46,Georgetown,MY,5.41,100.34,84.2,83,20,5.82,few clouds,0.0,0.0
47,Ilulissat,GL,69.22,-51.1,48.2,45,4,2.24,clear sky,0.0,0.0
48,Butaritari,KI,3.07,172.79,83.43,76,0,14.74,clear sky,0.0,0.0
49,Puerto Ayora,EC,-0.74,-90.35,70.0,94,10,1.99,clear sky,0.0,0.0
50,Dikson,RU,73.51,80.55,45.03,74,100,15.88,overcast clouds,0.0,0.0
51,Rikitea,PF,-23.12,-134.97,70.93,67,86,18.5,overcast clouds,0.0,0.0
52,Metro,ID,-5.11,105.31,78.08,87,82,2.53,broken clouds,0.0,0.0
53,Rio Gallegos,AR,-51.62,-69.22,33.8,86,99,5.82,overcast clouds,0.0,0.0
54,Coquimbo,CL,-29.95,-71.34,55.4,93,93,2.24,overcast clouds,0.0,0.0
55,Bolpur,IN,23.67,87.72,83.19,78,0,8.75,clear sky,0.0,0.0
56,Vestmanna,FO,62.16,-7.17,50.0,100,88,10.29,overcast clouds,0.0,0.0
57,Alice Springs,AU,-23.7,133.88,55.4,50,0,12.75,clear sky,0.0,0.0
58,Hailar,CN,49.2,119.7,67.41,52,17,9.6,few clouds,0.0,0.0
59,Mumford,GH,5.26,-0.76,77.27,88,100,10.38,light rain,0.24,0.0
60,Portland,US,45.52,-122.68,75.2,47,20,10.29,few clouds,0.0,0.0
61,Kapaa,US,22.08,-159.32,82.99,69,20,12.75,few clouds,0.0,0.0
62,Nyrob,RU,60.73,56.72,46.26,71,67,7.09,broken clouds,0.0,0.0
63,Isangel,VU,-19.55,169.27,78.8,74,40,11.41,scattered clouds,0.0,0.0
64,Castro,BR,-24.79,-50.01,57.65,83,0,2.73,clear sky,0.0,0.0
65,Viedma,AR,-40.81,-63.0,46.45,54,30,7.56,scattered clouds,0.0,0.0
66,Nikolskoye,RU,59.7,30.79,57.2,67,0,4.47,clear sky,0.0,0.0
67,Victoria,HK,22.29,114.16,89.6,66,20,11.41,few clouds,0.0,0.0
68,Fortuna,US,40.6,-124.16,62.01,87,90,9.17,overcast clouds,0.0,0.0
69,Hilo,US,19.73,-155.09,84.2,54,1,10.29,clear sky,0.0,0.0
70,Jinchang,CN,38.5,102.17,65.95,44,83,2.91,broken clouds,0.0,0.0
71,Komsomolskiy,UZ,40.43,71.72,71.6,35,0,4.7,clear sky,0.0,0.0
72,Faanui,PF,-16.48,-151.75,77.76,82,35,23.13,scattered clouds,0.0,0.0
73,Concordia,AR,-31.39,-58.02,55.99,86,25,1.99,scattered clouds,0.0,0.0
74,Hobart,AU,-42.88,147.33,55.4,93,75,13.87,shower rain,4.06,0.0
75,East London,ZA,-33.02,27.91,61.7,64,35,9.44,scattered clouds,0.0,0.0
76,Bara,NG,10.37,10.73,78.39,76,41,13.62,scattered clouds,0.0,0.0
77,Saskylakh,RU,71.92,114.08,62.08,54,97,8.88,overcast clouds,0.0,0.0
78,Hobyo,SO,5.35,48.53,79.23,69,98,23.6,overcast clouds,0.0,0.0
79,Khandwa,IN,21.83,76.33,81.03,74,85,13.76,overcast clouds,0.0,0.0
80,Vila Velha,BR,-20.33,-40.29,70.0,88,0,5.82,clear sky,0.0,0.0
81,Domoni,KM,-12.26,44.53,76.89,84,90,14.85,moderate rain,1.02,0.0
82,Coracao De Jesus,BR,-16.69,-44.37,61.77,63,87,6.67,overcast clouds,0.0,0.0
83,Atuona,PF,-9.8,-139.03,80.4,72,3,11.34,clear sky,0.0,0.0
84,Sitka,US,57.05,-135.33,53.6,71,90,13.87,overcast clouds,0.0,0.0
85,Khatanga,RU,71.97,102.5,64.42,53,64,7.49,broken clouds,0.0,0.0
86,Laguna,US,38.42,-121.42,93.0,29,1,13.87,clear sky,0.0,0.0
87,Mamlyutka,KZ,54.94,68.54,50.0,76,0,6.71,clear sky,0.0,0.0
88,Djibo,BF,14.1,-1.63,96.82,22,61,15.17,broken clouds,0.0,0.0
89,Maxixe,MZ,-23.86,35.35,63.07,75,0,3.78,clear sky,0.0,0.0
90,Avarua,CK,-21.21,-159.78,77.0,53,98,16.11,overcast clouds,0.0,0.0
91,Half Moon Bay,US,37.46,-122.43,71.01,87,90,6.93,mist,0.0,0.0
92,Prince Rupert,CA,54.32,-130.32,55.4,76,1,2.24,clear sky,0.0,0.0
93,Severo-Kurilsk,RU,50.68,156.12,49.32,78,100,3.91,overcast clouds,0.0,0.0
94,Farrukhnagar,IN,17.08,78.2,77.0,94,75,6.93,mist,0.0,0.0
95,Khirkiya,IN,22.17,76.86,81.45,77,100,7.96,light rain,0.27,0.0
96,Samarai,PG,-10.62,150.67,80.31,83,44,10.98,scattered clouds,0.0,0.0
97,Abalak,RU,58.13,68.59,44.02,90,10,6.17,clear sky,0.0,0.0
98,Bilma,NE,18.69,12.92,83.97,14,0,3.94,clear sky,0.0,0.0
99,Sur,OM,22.57,59.53,85.3,67,41,7.94,scattered clouds,0.0,0.0
100,Dakar,SN,14.69,-17.44,80.6,83,0,4.7,clear sky,0.0,0.0
101,Nanhai,CN,30.13,111.78,68.0,98,100,7.83,heavy intensity rain,6.69,0.0
102,Cape Town,ZA,-33.93,18.42,57.0,93,100,8.05,overcast clouds,0.0,0.0
103,Upernavik,GL,72.79,-56.15,41.52,66,100,6.31,overcast clouds,0.0,0.0
104,Pionerskiy,RU,54.95,20.23,62.6,100,40,2.24,scattered clouds,0.0,0.0
105,Ribeira Grande,PT,38.52,-28.7,66.31,87,7,14.23,clear sky,0.0,0.0
106,Cabo San Lucas,MX,22.89,-109.91,82.99,37,5,6.93,clear sky,0.0,0.0
107,Longyearbyen,SJ,78.22,15.64,44.6,65,20,2.24,few clouds,0.0,0.0
108,Saldanha,ZA,-33.01,17.94,50.0,93,100,1.12,overcast clouds,0.0,0.0
109,Qaanaaq,GL,77.48,-69.36,39.24,72,47,2.66,scattered clouds,0.0,0.0
110,Flin Flon,CA,54.77,-101.86,60.89,63,99,3.78,overcast clouds,0.0,0.0
111,Dalvik,IS,65.97,-18.53,55.4,71,75,11.41,broken clouds,0.0,0.0
112,Barrow,US,71.29,-156.79,37.4,86,90,12.75,overcast clouds,0.0,0.0
113,Aksu,CN,41.12,80.26,76.51,18,0,2.15,clear sky,0.0,0.0
114,Saint George,US,37.1,-113.58,100.4,8,1,12.75,clear sky,0.0,0.0
115,Salalah,OM,17.02,54.09,84.2,79,75,3.36,broken clouds,0.0,0.0
116,Acajutla,SV,13.59,-89.83,78.8,78,20,1.66,few clouds,0.0,0.0
117,Thinadhoo,MV,0.53,72.93,83.37,72,100,6.91,overcast clouds,0.0,0.0
118,Arraial Do Cabo,BR,-22.97,-42.03,73.24,86,0,15.05,clear sky,0.0,0.0
119,Kokopo,PG,-4.35,152.26,84.85,72,0,7.76,light rain,0.11,0.0
120,Kaitangata,NZ,-46.28,169.85,44.01,69,0,7.0,clear sky,0.0,0.0
121,Avera,US,33.19,-82.53,82.4,74,40,5.64,thunderstorm,0.0,0.0
122,Auki,SB,-8.77,160.7,85.46,67,22,1.81,light rain,0.61,0.0
123,Kahului,US,20.89,-156.47,89.6,40,20,18.34,few clouds,0.0,0.0
124,College,US,64.86,-147.8,53.6,87,90,5.82,light rain,0.77,0.0
125,Bethel,US,41.37,-73.41,77.0,65,1,5.82,clear sky,0.0,0.0
126,Margate,GB,51.38,1.39,61.0,52,4,4.0,clear sky,0.0,0.0
127,Chumikan,RU,54.72,135.31,40.24,95,100,7.23,light rain,0.15,0.0
128,Chuy,UY,-33.7,-53.46,58.42,94,77,7.85,broken clouds,0.0,0.0
129,Pisco,PE,-13.7,-76.22,62.6,77,90,6.93,overcast clouds,0.0,0.0
130,Veraval,IN,20.9,70.37,84.2,79,99,12.55,overcast clouds,0.0,0.0
131,Sorland,NO,67.67,12.69,60.1,61,0,12.48,clear sky,0.0,0.0
132,Jamestown,US,42.1,-79.24,75.99,83,90,3.36,overcast clouds,0.0,0.0
133,Tautira,PF,-17.73,-149.15,82.4,58,75,5.82,broken clouds,0.0,0.0
134,Poum,NC,-20.23,164.02,72.66,71,25,6.49,scattered clouds,0.0,0.0
135,Luderitz,NA,-26.65,15.16,50.0,100,0,6.93,clear sky,0.0,0.0
136,Tiksi,RU,71.69,128.87,40.64,85,72,11.14,broken clouds,0.0,0.0
137,Barra Patuca,HN,15.8,-84.28,81.75,82,100,13.53,light rain,0.23,0.0
138,Liberal,US,37.04,-100.92,73.4,64,1,17.22,clear sky,0.0,0.0
139,Hermanus,ZA,-34.42,19.23,55.99,92,100,3.0,overcast clouds,0.0,0.0
140,Kalianget,ID,-7.05,113.93,82.29,77,96,13.53,overcast clouds,0.0,0.0
141,Port Lincoln,AU,-34.73,135.87,58.1,65,0,18.77,clear sky,0.0,0.0
142,Christchurch,NZ,-43.53,172.63,51.01,81,24,6.93,few clouds,0.0,0.0
143,Kruisfontein,ZA,-34.0,24.73,52.16,84,100,4.81,overcast clouds,0.0,0.0
144,Makakilo City,US,21.35,-158.09,86.0,58,40,20.8,scattered clouds,0.0,0.0
145,Iqaluit,CA,63.75,-68.51,39.2,69,75,3.36,broken clouds,0.0,0.0
146,Beloha,MG,-25.17,45.05,67.21,81,99,2.77,overcast clouds,0.0,0.0
147,Aquiraz,BR,-3.9,-38.39,80.6,78,40,6.93,scattered clouds,0.0,0.0
148,Kultuk,RU,51.72,103.7,64.2,67,100,1.9,overcast clouds,0.0,0.0
149,Dembi Dolo,ET,8.53,34.8,56.55,100,95,3.76,overcast clouds,0.0,0.0
150,Mehamn,NO,71.04,27.85,44.51,89,100,13.67,overcast clouds,0.0,0.0
151,Kavaratti,IN,10.57,72.64,83.71,76,100,17.38,moderate rain,1.25,0.0
152,Pokhara,NP,28.23,83.98,71.08,83,99,2.77,moderate rain,2.05,0.0
153,Romanovo,RU,52.62,81.23,55.4,57,37,8.25,scattered clouds,0.0,0.0
154,Pudozh,RU,61.81,36.53,45.54,79,0,1.61,clear sky,0.0,0.0
155,Ormara,PK,25.21,64.64,84.45,80,63,11.27,broken clouds,0.0,0.0
156,Dalbandin,PK,28.89,64.41,77.99,59,0,5.17,clear sky,0.0,0.0
157,Nioro,GM,13.35,-15.75,82.58,66,57,10.07,light rain,0.3,0.0
158,Mugur-Aksy,RU,50.35,90.5,34.83,88,100,8.43,snow,0.0,0.75
159,Wewak,PG,-3.55,143.63,83.61,74,85,5.82,light rain,0.33,0.0
160,Cidreira,BR,-30.18,-50.21,68.22,85,59,6.64,broken clouds,0.0,0.0
161,Neftcala,AZ,39.37,49.25,76.37,53,7,13.82,clear sky,0.0,0.0
162,Taoudenni,ML,22.68,-3.98,101.03,10,56,16.08,broken clouds,0.0,0.0
163,Janja,BA,44.67,19.25,61.0,100,90,5.82,moderate rain,0.0,0.0
164,Nanortalik,GL,60.14,-45.24,45.77,72,100,7.29,overcast clouds,0.0,0.0
165,Karratha,AU,-20.74,116.85,70.36,30,0,16.49,clear sky,0.0,0.0
166,Jaguarari,BR,-10.26,-40.2,64.53,98,26,7.56,light rain,0.14,0.0
167,Sosnovo-Ozerskoye,RU,52.52,111.54,60.55,71,97,3.98,overcast clouds,0.0,0.0
168,Rio Verde De Mato Grosso,BR,-18.92,-54.84,72.01,44,0,3.6,clear sky,0.0,0.0
169,Tasiilaq,GL,65.61,-37.64,53.6,50,90,16.11,overcast clouds,0.0,0.0
170,Gamba,GA,-2.65,10.0,71.33,95,13,3.49,few clouds,0.0,0.0
171,Neuquen,AR,-38.95,-68.06,50.0,61,100,4.7,overcast clouds,0.0,0.0
172,Maceio,BR,-9.67,-35.74,69.8,94,40,2.24,scattered clouds,0.0,0.0
173,Jumla,NP,29.27,82.18,60.6,71,100,1.7,light rain,0.6,0.0
174,Geraldton,AU,-28.77,114.6,66.2,25,0,27.51,clear sky,0.0,0.0
175,Rocha,UY,-34.48,-54.33,57.56,94,100,8.7,overcast clouds,0.0,0.0
176,Owando,CG,-0.48,15.9,73.26,85,90,3.51,overcast clouds,0.0,0.0
177,Sinnamary,GF,5.38,-52.95,78.3,86,0,8.5,clear sky,0.0,0.0
178,Bathsheba,BB,13.22,-59.52,82.4,83,40,21.92,haze,0.0,0.0
179,La Ronge,CA,55.1,-105.28,64.4,48,5,8.05,clear sky,0.0,0.0
180,Narsaq,GL,60.92,-46.05,51.8,57,100,4.7,overcast clouds,0.0,0.0
181,Ayaviri,PE,-14.89,-70.59,42.08,51,2,2.06,clear sky,0.0,0.0
182,Moosomin,CA,50.13,-101.67,57.94,71,39,7.7,scattered clouds,0.0,0.0
183,Leeton,AU,-34.57,146.4,48.2,100,90,10.29,overcast clouds,0.0,0.0
184,Jauharabad,PK,32.29,72.28,91.87,32,0,6.73,clear sky,0.0,0.0
185,Sept-Iles,CA,50.2,-66.38,54.0,100,90,6.93,mist,0.0,0.0
186,Filadelfia,US,39.95,-75.16,80.6,61,40,6.93,scattered clouds,0.0,0.0
187,Quijingue,BR,-10.75,-39.21,66.47,99,13,3.24,light rain,0.17,0.0
188,Buinsk,RU,54.95,48.28,44.6,87,0,4.34,clear sky,0.0,0.0
189,Mount Isa,AU,-20.73,139.5,60.8,31,0,14.99,clear sky,0.0,0.0
190,Alofi,NU,-19.06,-169.92,80.6,74,21,13.87,few clouds,0.0,0.0
191,Tayud,PH,10.38,123.99,86.0,74,40,5.82,scattered clouds,0.0,0.0
192,Hervey Bay,AU,-25.3,152.85,71.01,55,35,8.01,scattered clouds,0.0,0.0
193,Pacific Grove,US,36.62,-121.92,71.01,63,1,9.17,clear sky,0.0,0.0
194,Mana,GF,5.66,-53.78,77.94,87,0,8.57,clear sky,0.0,0.0
195,Uyskoye,RU,54.38,60.0,44.37,77,0,6.02,clear sky,0.0,0.0
196,Honningsvag,NO,70.98,25.97,44.44,91,100,9.98,overcast clouds,0.0,0.0
197,Torbay,CA,47.67,-52.73,52.0,66,90,13.87,overcast clouds,0.0,0.0
198,Pilar,BR,-9.6,-35.96,69.8,94,40,2.24,scattered clouds,0.0,0.0
199,Leshan,CN,29.56,103.76,72.77,95,100,2.68,light rain,0.25,0.0
200,Nurobod,UZ,40.91,69.8,77.0,29,29,2.24,scattered clouds,0.0,0.0
201,Los Llanos De Aridane,ES,28.66,-17.92,69.8,73,20,13.87,few clouds,0.0,0.0
202,Provideniya,RU,64.38,-173.3,57.2,54,25,11.18,scattered clouds,0.0,0.0
203,Caravelas,BR,-17.71,-39.25,69.57,74,0,3.0,clear sky,0.0,0.0
204,Hithadhoo,MV,-0.6,73.08,83.7,67,100,5.3,overcast clouds,0.0,0.0
205,Norman Wells,CA,65.28,-126.83,55.4,93,90,10.29,light rain,0.0,0.0
206,Codrington,AU,-38.27,141.97,54.39,78,96,7.85,overcast clouds,0.0,0.0
207,San Patricio,MX,19.22,-104.7,84.2,74,40,5.82,scattered clouds,0.0,0.0
208,San Isidro,PE,-12.12,-77.05,62.6,82,90,8.05,overcast clouds,0.0,0.0
209,Chester,US,40.13,-75.87,75.2,69,1,5.28,clear sky,0.0,0.0
210,Namwala,ZM,-15.75,26.44,46.51,88,0,1.34,clear sky,0.0,0.0
211,Quatre Cocos,MU,-20.21,57.76,69.8,83,40,10.29,shower rain,0.0,0.0
212,San Juan De Los Morros,VE,9.91,-67.35,71.53,91,58,3.56,broken clouds,0.0,0.0
213,Numaligarh,IN,26.63,93.75,81.79,86,35,0.27,light rain,0.47,0.0
214,Dingle,PH,11.0,122.67,85.68,73,95,6.24,overcast clouds,0.0,0.0
215,Masumbwe,TZ,-3.63,32.18,63.52,64,42,2.89,scattered clouds,0.0,0.0
216,Skibbereen,IE,51.55,-9.27,53.6,93,75,12.75,broken clouds,0.0,0.0
217,Heppenheim,DE,49.64,8.64,64.99,74,99,1.01,overcast clouds,0.0,0.0
218,Zhigansk,RU,66.77,123.37,68.16,67,64,10.58,broken clouds,0.0,0.0
219,Palasa,IN,18.77,84.42,82.06,74,100,6.35,overcast clouds,0.0,0.0
220,Lodingen,NO,68.41,16.0,59.0,87,0,10.29,clear sky,0.0,0.0
221,Praya,CV,14.92,-23.51,77.0,78,20,11.41,few clouds,0.0,0.0
222,Mattru,SL,7.62,-11.83,74.44,97,100,1.86,light rain,0.13,0.0
223,Uruzgan,AF,32.83,66.0,69.35,19,0,4.12,clear sky,0.0,0.0
224,Bonavista,CA,48.65,-53.11,51.3,73,100,17.6,overcast clouds,0.0,0.0
225,Safaga,EG,26.73,33.94,89.06,28,0,11.5,clear sky,0.0,0.0
226,Nishihara,JP,26.18,127.76,84.2,94,90,8.05,light intensity shower rain,2.03,0.0
227,Matay,EG,28.42,30.78,75.24,45,0,9.95,clear sky,0.0,0.0
228,Umm Kaddadah,SD,13.6,26.69,87.3,33,81,9.46,broken clouds,0.0,0.0
229,Ponta Delgada,PT,37.73,-25.67,64.4,93,40,7.49,scattered clouds,0.0,0.0
230,Quba,AZ,41.36,48.52,70.83,32,95,8.32,overcast clouds,0.0,0.0
231,Tromso,NO,69.65,18.96,50.0,61,98,2.24,overcast clouds,0.0,0.0
232,Alibag,IN,18.64,72.88,80.6,100,75,4.7,shower rain,0.0,0.0
233,Lorengau,PG,-2.02,147.27,85.77,64,21,3.76,few clouds,0.0,0.0
234,Provost,CA,52.35,-110.27,64.31,49,100,5.01,overcast clouds,0.0,0.0
235,Hukuntsi,BW,-24.0,21.75,48.54,50,0,6.82,clear sky,0.0,0.0
236,Gushikawa,JP,26.35,127.87,80.6,94,75,8.05,moderate rain,2.03,0.0
237,Honiara,SB,-9.43,159.95,89.6,62,20,9.17,few clouds,0.0,0.0
238,San Quintin,MX,30.48,-115.95,66.96,77,3,16.93,clear sky,0.0,0.0
239,Hamilton,US,39.18,-84.53,73.4,78,20,3.36,light rain,0.32,0.0
240,Gewane,ET,10.17,40.65,87.35,38,76,5.86,broken clouds,0.0,0.0
241,Kresek,ID,-6.13,106.38,88.0,83,20,4.7,haze,0.0,0.0
242,Yellowknife,CA,62.46,-114.35,80.01,36,20,12.75,few clouds,0.0,0.0
243,Roald,NO,62.58,6.13,57.99,93,100,9.17,light rain,0.0,0.0
244,Pangnirtung,CA,66.15,-65.71,47.93,58,96,2.8,overcast clouds,0.0,0.0
245,Camacha,PT,33.08,-16.33,69.8,68,40,11.41,scattered clouds,0.0,0.0
246,Kunjah,PK,32.53,73.97,80.6,69,40,4.7,smoke,0.0,0.0
247,Lavrentiya,RU,65.58,-171.0,59.49,44,0,9.42,clear sky,0.0,0.0
248,Murgab,TM,37.5,61.97,80.6,28,90,9.17,overcast clouds,0.0,0.0
249,Joacaba,BR,-27.18,-51.5,60.24,84,0,2.89,clear sky,0.0,0.0
250,Orcopampa,PE,-15.27,-72.34,45.0,49,94,2.21,overcast clouds,0.0,0.0
251,Olafsvik,IS,64.89,-23.71,52.41,80,100,19.15,overcast clouds,0.0,0.0
252,Recodo,PH,6.95,121.96,86.0,74,40,4.7,scattered clouds,0.0,0.0
253,Singarayakonda,IN,15.25,80.03,82.38,64,100,13.91,overcast clouds,0.0,0.0
254,Nome,US,64.5,-165.41,60.8,67,40,9.17,scattered clouds,0.0,0.0
255,Nalut,LY,30.33,10.85,71.55,29,0,6.69,clear sky,0.0,0.0
256,Miracema Do Tocantins,BR,-9.56,-48.4,72.66,52,0,3.71,clear sky,0.0,0.0
257,Novyy Urengoy,RU,66.08,76.63,50.2,83,5,10.78,clear sky,0.0,0.0
258,Lasa,IT,46.62,10.7,54.0,76,75,8.05,broken clouds,0.0,0.0
259,Popondetta,PG,-8.75,148.25,87.75,58,7,3.11,clear sky,0.0,0.0
260,Jerantut,MY,3.94,102.36,78.98,88,17,0.47,few clouds,0.0,0.0
261,Ambilobe,MG,-13.2,49.05,71.19,87,7,3.74,clear sky,0.0,0.0
262,Saint-Philippe,RE,-21.36,55.77,68.0,68,39,8.05,scattered clouds,0.0,0.0
263,Leningradskiy,RU,69.38,178.42,62.02,46,0,4.52,clear sky,0.0,0.0
264,Bonthe,SL,7.53,-12.51,78.12,86,100,4.76,light rain,0.14,0.0
265,Chokurdakh,RU,70.63,147.92,73.71,39,59,16.22,broken clouds,0.0,0.0
266,Thohoyandou,ZA,-22.95,30.48,51.08,45,0,4.23,clear sky,0.0,0.0
267,Lodja,CD,-3.48,23.43,71.53,62,13,1.16,few clouds,0.0,0.0
268,Cabedelo,BR,-6.98,-34.83,73.4,94,20,4.7,few clouds,0.0,0.0
269,Bay Roberts,CA,47.6,-53.26,50.0,55,99,10.07,overcast clouds,0.0,0.0
270,Oktyabrskiy,RU,54.48,53.47,43.18,86,0,4.47,clear sky,0.0,0.0
271,Galveston,US,29.37,-94.97,84.2,79,75,10.29,broken clouds,0.0,0.0
272,Mehtar Lam,AF,34.67,70.21,80.6,61,1,6.93,haze,0.0,0.0
273,Pandan,PH,14.05,124.17,85.82,71,9,7.54,clear sky,0.0,0.0
274,Jiangkou,CN,25.49,119.2,86.0,79,100,11.18,overcast clouds,0.0,0.0
275,Pawai,IN,24.27,80.17,84.51,62,95,4.09,overcast clouds,0.0,0.0
276,Bintulu,MY,3.17,113.03,80.6,88,75,3.36,broken clouds,0.0,0.0
277,Akyab,MM,20.15,92.9,82.71,84,88,13.0,light rain,0.96,0.0
278,Zhezkazgan,KZ,47.8,67.71,66.06,27,27,8.05,scattered clouds,0.0,0.0
279,Malmesbury,ZA,-33.46,18.73,57.0,93,100,8.05,overcast clouds,0.0,0.0
280,Shimoda,JP,34.67,138.95,68.0,94,75,23.04,light intensity shower rain,0.0,0.0
281,Arteaga,MX,18.47,-102.42,72.48,81,80,4.41,light rain,0.31,0.0
282,Port Elizabeth,ZA,-33.92,25.57,51.8,93,48,4.7,scattered clouds,0.0,0.0
283,Rokytnice Nad Jizerou,CZ,50.73,15.43,57.99,82,100,6.82,overcast clouds,0.0,0.0
284,Abu Samrah,SY,35.3,37.18,70.02,43,0,4.72,clear sky,0.0,0.0
285,Krasnovishersk,RU,60.41,57.08,45.82,75,86,6.02,overcast clouds,0.0,0.0
286,Port-Cartier,CA,50.03,-66.87,54.0,100,90,6.93,mist,0.0,0.0
287,Vostok,RU,46.49,135.88,53.02,95,100,3.24,overcast clouds,0.0,0.0
288,Corcoran,US,36.1,-119.56,99.0,22,1,8.05,clear sky,0.0,0.0
289,Vardo,NO,70.37,31.11,44.96,83,36,11.52,scattered clouds,0.0,0.0
290,Atar,MR,20.52,-13.05,98.01,10,0,14.9,clear sky,0.0,0.0
291,Tagusao,PH,9.19,117.81,85.44,68,100,1.92,overcast clouds,0.0,0.0
292,Truckee,US,39.33,-120.18,73.99,31,0,1.99,clear sky,0.0,0.0
293,Cherskiy,RU,68.75,161.3,81.88,28,42,17.47,scattered clouds,0.0,0.0
294,Ugoofaaru,MV,5.67,73.0,82.9,78,100,12.21,overcast clouds,0.0,0.0
295,Atchison,US,39.56,-95.12,82.0,82,100,5.46,moderate rain,3.33,0.0
296,Savannakhet,LA,16.57,104.75,84.2,74,20,2.24,few clouds,0.0,0.0
297,Constitucion,CL,-35.33,-72.42,50.68,76,97,3.15,overcast clouds,0.0,0.0
298,Alugan,PH,12.22,125.48,84.94,75,99,9.53,overcast clouds,0.0,0.0
299,Leshukonskoye,RU,64.9,45.76,45.39,67,100,6.49,overcast clouds,0.0,0.0
300,Cholet,FR,47.17,-1.0,55.0,100,13,2.98,few clouds,0.0,0.0
301,Bridgend,GB,51.51,-3.58,55.4,87,75,9.17,broken clouds,0.0,0.0
302,Yaan,NG,7.38,8.57,71.06,97,100,7.94,light rain,0.13,0.0
303,Svidnik,SK,49.31,21.57,62.01,99,100,11.99,overcast clouds,0.0,0.0
304,Klaksvik,FO,62.23,-6.59,50.0,100,41,10.29,scattered clouds,0.0,0.0
305,Isla Mujeres,MX,21.23,-86.73,84.2,79,75,6.93,light rain,0.25,0.0
306,Santa Maria,BR,-29.68,-53.81,77.0,65,40,4.7,scattered clouds,0.0,0.0
307,Dudinka,RU,69.41,86.18,59.0,44,97,15.66,overcast clouds,0.0,0.0
308,Pineville,US,31.32,-92.43,81.0,74,1,6.93,clear sky,0.0,0.0
309,Jaque,PA,7.52,-78.17,79.57,80,100,1.48,overcast clouds,0.0,0.0
310,Coos Bay,US,43.37,-124.22,70.0,77,1,17.22,clear sky,0.0,0.0
311,Never,FR,46.99,3.16,63.0,93,40,5.82,scattered clouds,0.0,0.0
312,Katsuura,JP,35.13,140.3,70.0,88,75,10.29,light intensity shower rain,0.0,0.0
313,Poya,NC,-21.35,165.15,75.25,58,0,2.66,clear sky,0.0,0.0
314,Barahona,DO,18.21,-71.1,81.61,77,1,7.38,light rain,0.12,0.0
315,Marsabit,KE,2.33,37.99,63.7,81,44,13.56,scattered clouds,0.0,0.0
316,Cacoal,BR,-11.44,-61.45,71.83,79,0,1.52,clear sky,0.0,0.0
317,Te Anau,NZ,-45.42,167.72,47.97,64,0,0.72,clear sky,0.0,0.0
318,Tashla,RU,51.77,52.74,50.11,75,0,10.13,clear sky,0.0,0.0
319,Halifax,CA,44.65,-63.57,57.99,83,37,5.84,scattered clouds,0.0,0.0
320,Tuatapere,NZ,-46.13,167.68,39.0,83,0,3.0,clear sky,0.0,0.0
321,Powell,US,40.16,-83.08,75.0,78,90,3.36,light rain,0.0,0.0
322,Teahupoo,PF,-17.83,-149.27,82.4,58,75,5.82,broken clouds,0.0,0.0
323,Poltavka,RU,54.37,71.76,54.5,85,100,6.4,overcast clouds,0.0,0.0
324,Muros,ES,42.78,-9.06,59.0,95,2,1.01,clear sky,0.0,0.0
325,Oistins,BB,13.07,-59.53,82.4,83,75,20.8,haze,0.0,0.0
326,Beringovskiy,RU,63.05,179.32,53.2,47,0,7.94,clear sky,0.0,0.0
327,Olga,RU,43.74,135.29,57.31,95,100,7.09,overcast clouds,0.0,0.0
328,Falakata,IN,26.52,89.21,80.92,85,4,4.61,light rain,0.22,0.0
329,Mantua,IT,45.17,10.78,68.0,75,0,4.0,clear sky,0.0,0.0
330,Shenjiamen,CN,29.96,122.3,72.81,97,100,12.55,light rain,0.5,0.0
331,Feicheng,CN,35.26,117.97,75.0,99,89,10.54,overcast clouds,0.0,0.0
332,Mayumba,GA,-3.43,10.66,71.37,93,6,1.03,clear sky,0.0,0.0
333,Haapiti,PF,-17.57,-149.87,82.4,58,75,5.82,broken clouds,0.0,0.0
334,Marsa Matruh,EG,31.35,27.25,71.22,79,0,11.14,clear sky,0.0,0.0
335,Mildura,AU,-34.2,142.15,51.01,100,90,10.29,overcast clouds,0.0,0.0
336,Aklavik,CA,68.22,-135.01,60.8,55,75,6.93,broken clouds,0.0,0.0
337,Ostrovnoy,RU,68.05,39.51,47.19,73,37,8.03,scattered clouds,0.0,0.0
338,Warrington,GB,53.39,-2.58,54.0,81,63,6.93,broken clouds,0.0,0.0
339,Laibin,CN,23.7,109.27,85.24,77,98,12.28,overcast clouds,0.0,0.0
340,Kalmunai,LK,7.42,81.82,81.73,71,100,5.97,overcast clouds,0.0,0.0
341,San Cristobal,VE,7.77,-72.22,75.2,88,75,4.7,broken clouds,0.0,0.0
342,Tottori,JP,35.5,134.23,73.4,78,75,5.82,broken clouds,0.0,0.0
343,Kalabo,ZM,-14.97,22.68,49.96,56,0,4.97,clear sky,0.0,0.0
344,Narowal,PK,32.1,74.88,80.6,69,40,8.05,haze,0.0,0.0
345,Necochea,AR,-38.55,-58.74,39.99,93,0,5.01,clear sky,0.0,0.0
346,Guerrero Negro,MX,27.98,-114.06,66.92,73,0,20.07,clear sky,0.0,0.0
347,Bilibino,RU,68.05,166.44,79.95,29,81,15.55,broken clouds,0.0,0.0
348,Jalu,LY,29.03,21.55,69.3,74,0,11.23,clear sky,0.0,0.0
349,Bom Jesus Da Lapa,BR,-13.26,-43.42,70.65,62,0,4.72,clear sky,0.0,0.0
350,Tabuk,PH,17.42,121.44,83.5,73,99,4.43,overcast clouds,0.0,0.0
351,Waipawa,NZ,-41.41,175.52,53.6,93,72,13.87,broken clouds,0.0,0.0
352,Turukhansk,RU,65.82,87.98,60.94,45,0,13.71,clear sky,0.0,0.0
353,Naze,JP,28.37,129.48,75.2,88,75,21.92,light intensity shower rain,0.0,0.0
354,Maniitsoq,GL,65.42,-52.9,46.74,63,100,8.88,overcast clouds,0.0,0.0
355,Bac Lieu,VN,9.29,105.72,84.94,72,2,5.53,clear sky,0.0,0.0
356,Le Port,RE,-20.94,55.29,68.0,82,20,11.41,few clouds,0.0,0.0
357,Aripuana,BR,-9.17,-60.63,77.59,64,49,1.9,scattered clouds,0.0,0.0
358,Yar-Sale,RU,66.83,70.83,42.42,90,100,15.17,light rain,0.95,0.0
359,Petatlan,MX,17.52,-101.27,86.47,56,99,3.18,overcast clouds,0.0,0.0
360,Kieta,PG,-6.22,155.63,85.15,67,20,3.62,few clouds,0.0,0.0
361,Krasnyy Yar,RU,46.53,48.35,73.0,56,4,3.83,clear sky,0.0,0.0
362,Inuvik,CA,68.35,-133.72,60.8,55,75,6.93,broken clouds,0.0,0.0
363,Conceicao Do Araguaia,BR,-8.26,-49.26,75.2,64,0,3.36,clear sky,0.0,0.0
364,Dzhebariki-Khaya,RU,62.22,135.8,74.34,38,71,2.51,broken clouds,0.0,0.0
365,Vievis,LT,54.77,24.8,63.0,100,89,5.82,overcast clouds,0.0,0.0
366,Bambous Virieux,MU,-20.34,57.76,69.8,83,40,10.29,shower rain,0.0,0.0
367,Hirado,JP,33.36,129.55,80.6,65,20,3.36,few clouds,0.0,0.0
368,Dunedin,NZ,-45.87,170.5,45.0,80,0,1.99,clear sky,0.0,0.0
369,Mamallapuram,IN,12.63,80.17,82.4,78,75,8.05,mist,0.0,0.0
370,Mundra,IN,22.85,69.73,83.08,77,93,9.04,moderate rain,2.49,0.0
371,Chimore,BO,-16.98,-65.13,73.71,93,96,3.58,moderate rain,1.09,0.0
372,Port-Gentil,GA,-0.72,8.78,74.98,85,2,12.41,clear sky,0.0,0.0
373,Nakamura,JP,32.98,132.93,79.56,59,22,4.0,few clouds,0.0,0.0
374,Aykhal,RU,66.0,111.5,69.8,43,40,4.47,scattered clouds,0.0,0.0
375,Jabinyanah,TN,35.03,10.91,73.4,69,0,3.36,clear sky,0.0,0.0
376,Namatanai,PG,-3.67,152.43,85.73,68,27,3.47,scattered clouds,0.0,0.0
377,Ponta Do Sol,PT,32.67,-17.1,69.8,68,40,17.22,scattered clouds,0.0,0.0
378,Kaeo,NZ,-35.1,173.78,63.0,3,53,10.0,light rain,0.14,0.0
379,Touros,BR,-5.2,-35.46,73.4,88,40,4.7,scattered clouds,0.0,0.0
380,Clarksburg,US,39.28,-80.34,80.6,61,1,4.7,clear sky,0.0,0.0
381,Tual,ID,-5.67,132.75,79.84,80,0,21.74,clear sky,0.0,0.0
382,Japura,ID,-0.32,102.35,77.86,85,93,2.82,overcast clouds,0.0,0.0
383,Riyadh,SA,24.69,46.72,82.4,21,0,8.05,clear sky,0.0,0.0
384,Kirkwall,GB,58.98,-2.96,51.01,100,0,6.93,clear sky,0.0,0.0
385,Forbes,AU,-33.38,148.02,50.0,92,100,3.0,overcast clouds,0.0,0.0
386,Fairbanks,US,64.84,-147.72,53.6,93,90,10.29,light rain,0.77,0.0
387,Berdigestyakh,RU,62.1,126.7,70.18,35,28,10.07,scattered clouds,0.0,0.0
388,Sumbe,AO,-11.21,13.84,70.54,85,0,5.06,clear sky,0.0,0.0
389,Talavera,PH,15.62,120.93,87.8,70,75,4.7,haze,0.0,0.0
390,Paracuru,BR,-3.41,-39.03,77.0,80,0,1.99,clear sky,0.0,0.0
391,Mubi,NG,10.27,13.26,74.53,80,100,3.42,overcast clouds,0.0,0.0
392,Rodrigues Alves,BR,-7.74,-72.65,73.26,94,56,2.17,broken clouds,0.0,0.0
393,Lagoa,PT,39.05,-27.98,66.2,86,0,19.64,clear sky,0.0,0.0
394,Homer,US,59.64,-151.55,60.8,51,20,5.82,few clouds,0.0,0.0
395,Juneau,US,58.3,-134.42,55.0,81,90,8.05,mist,1.78,0.0
396,Praia,CV,14.92,-23.51,77.0,78,20,11.41,few clouds,0.0,0.0
397,Arshan,RU,46.27,44.22,75.0,40,1,11.18,clear sky,0.0,0.0
398,Ambon,ID,-3.7,128.18,82.4,78,75,6.93,shower rain,0.0,0.0
399,Canakkale,TR,40.08,26.83,69.8,77,0,13.87,clear sky,0.0,0.0
400,Grand Gaube,MU,-20.01,57.66,69.01,83,15,3.0,few clouds,0.0,0.0
401,Znamenskoye,RU,57.13,73.83,47.84,90,0,5.37,clear sky,0.0,0.0
402,Chateaubelair,VC,13.28,-61.25,84.2,83,20,25.28,haze,0.0,0.0
403,Maues,BR,-3.38,-57.72,79.47,74,100,1.19,overcast clouds,0.0,0.0
404,Gizo,SB,-8.1,156.84,84.4,71,4,4.72,clear sky,0.0,0.0
405,Aden,YE,12.78,45.04,87.6,69,17,9.8,few clouds,0.0,0.0
406,Kaseda,JP,31.42,130.32,78.8,65,20,10.29,few clouds,0.0,0.0
407,Laurinburg,US,34.77,-79.46,82.0,78,1,8.37,clear sky,0.0,0.0
408,Chake Chake,TZ,-5.25,39.77,77.23,77,100,12.08,overcast clouds,0.0,0.0
409,Hami,CN,42.8,93.45,74.5,19,6,14.25,clear sky,0.0,0.0
410,Ayabe,JP,35.3,135.25,80.6,83,75,2.24,broken clouds,0.0,0.0
411,Grajau,BR,-5.82,-46.14,72.68,65,17,4.72,few clouds,0.0,0.0
412,Tungor,RU,53.38,142.96,47.21,78,100,11.16,overcast clouds,0.0,0.0
413,Gayeri,BF,12.65,0.49,89.17,46,98,16.78,overcast clouds,0.0,0.0
414,Wattegama,LK,6.8,81.48,80.6,88,20,5.82,few clouds,0.0,0.0
415,Comodoro Rivadavia,AR,-45.87,-67.5,51.8,50,100,10.29,overcast clouds,0.0,0.0
416,Tiarei,PF,-17.53,-149.33,82.4,58,75,5.82,broken clouds,0.0,0.0
417,Port Hedland,AU,-20.32,118.57,75.2,23,0,18.34,clear sky,0.0,0.0
418,Hostotipaquillo,MX,21.07,-104.07,80.01,64,77,7.29,broken clouds,0.0,0.0
419,Sainte-Marie,RE,-20.9,55.55,68.0,82,20,11.41,few clouds,0.0,0.0
420,Coxim,BR,-18.51,-54.76,72.52,45,0,4.03,clear sky,0.0,0.0
421,Lulea,SE,65.58,22.15,60.8,77,1,8.05,clear sky,0.0,0.0
422,Imbituba,BR,-28.24,-48.67,73.4,69,0,9.17,clear sky,0.0,0.0
423,Alyangula,AU,-13.85,136.42,80.6,54,0,9.17,clear sky,0.0,0.0
424,Bowen,AU,-20.02,148.23,81.0,44,37,4.7,scattered clouds,0.0,0.0
425,Vila,PT,42.03,-8.16,63.0,100,90,1.12,fog,0.0,0.0
426,Ribeira Brava,PT,32.65,-17.07,69.8,68,40,17.22,scattered clouds,0.0,0.0
427,Den Helder,NL,52.96,4.76,57.2,93,0,5.82,mist,0.0,0.0
428,Labuhan,ID,-6.88,112.21,78.35,85,100,5.79,overcast clouds,0.0,0.0
429,Oranjestad,AW,12.52,-70.03,82.4,83,20,17.22,few clouds,0.0,0.0
430,Stillwater,US,36.12,-97.06,80.6,61,1,11.41,clear sky,0.0,0.0
431,Poronaysk,RU,49.22,143.12,50.11,79,100,9.8,overcast clouds,0.0,0.0
432,Zonguldak,TR,41.25,31.83,60.98,81,99,2.55,overcast clouds,0.0,0.0
433,Sola,VU,-13.88,167.55,78.8,100,90,11.41,heavy intensity rain,0.0,0.0
434,Sonoita,MX,31.85,-112.83,100.99,10,0,15.21,clear sky,0.0,0.0
435,Rincon,US,32.3,-81.24,82.4,74,20,6.93,few clouds,0.0,0.0
436,Tazovskiy,RU,67.47,78.7,48.76,85,50,14.7,scattered clouds,0.0,0.0
437,Fairview,US,40.81,-74.0,80.01,65,1,3.36,clear sky,0.0,0.0
438,Shaunavon,CA,49.65,-108.42,64.53,54,100,11.39,overcast clouds,0.0,0.0
439,Tres Arroyos,AR,-38.37,-60.28,43.34,64,0,5.99,clear sky,0.0,0.0
440,Hengyang,CN,26.89,112.61,87.28,71,93,11.23,light rain,0.31,0.0
441,Riohacha,CO,11.54,-72.91,83.17,68,100,13.6,overcast clouds,0.0,0.0
442,Ferrol,ES,43.48,-8.24,61.0,100,2,2.24,clear sky,0.0,0.0
443,Kamaishi,JP,39.27,141.88,68.0,82,75,2.24,broken clouds,0.0,0.0
444,Xining,CN,36.62,101.77,58.05,68,93,2.75,overcast clouds,0.0,0.0
445,Wageningen,NL,51.97,5.67,59.0,72,0,3.36,clear sky,0.0,0.0
446,Kousseri,CM,12.08,15.03,78.8,69,99,4.7,overcast clouds,0.0,0.0
447,Sambava,MG,-14.27,50.17,72.66,91,74,13.06,light rain,0.41,0.0
448,Asilah,MA,35.47,-6.03,73.4,49,0,16.11,clear sky,0.0,0.0
449,Trinidad,BO,-14.83,-64.9,76.8,72,0,3.0,clear sky,0.0,0.0
450,Tiznit,MA,29.58,-9.5,69.62,54,0,1.41,clear sky,0.0,0.0
451,Usinsk,RU,65.99,57.53,39.25,75,100,13.58,overcast clouds,0.0,0.0
452,Altay,CN,47.87,88.12,50.59,44,3,2.06,clear sky,0.0,0.0
453,Payson,US,40.04,-111.73,84.2,25,75,14.99,broken clouds,0.0,0.0
454,Tomatlan,MX,19.93,-105.25,84.72,56,81,3.83,broken clouds,0.0,0.0
455,Nizhniy Tsasuchey,RU,50.52,115.13,70.16,38,57,7.07,broken clouds,0.0,0.0
456,Kumano,JP,34.34,132.59,78.8,60,20,5.82,few clouds,0.0,0.0
457,Placido De Castro,BR,-10.34,-67.19,77.13,75,0,0.76,clear sky,0.0,0.0
458,Bayir,TR,37.27,28.22,66.2,82,0,2.06,clear sky,0.0,0.0
459,Lusambo,CD,-4.97,23.45,67.6,53,0,1.21,clear sky,0.0,0.0
460,Ayan,RU,56.45,138.17,42.55,97,100,6.15,light rain,0.14,0.0
461,Harper,LR,4.38,-7.72,76.15,86,100,9.95,overcast clouds,0.0,0.0
462,Camana,PE,-16.62,-72.71,61.12,78,85,5.77,overcast clouds,0.0,0.0
463,Souillac,MU,-20.52,57.52,69.8,83,40,10.29,shower rain,0.0,0.0
464,Manzanillo,CU,20.34,-77.12,81.03,80,1,4.07,clear sky,0.0,0.0
465,Penzance,GB,50.12,-5.54,55.99,93,0,9.17,clear sky,0.0,0.0
466,Shache,CN,38.42,77.24,77.36,16,0,7.38,clear sky,0.0,0.0
467,Surgut,RU,61.25,73.42,48.2,100,40,11.18,scattered clouds,0.0,0.0
468,Balkanabat,TM,39.51,54.37,73.09,72,0,6.02,clear sky,0.0,0.0
469,Chapais,CA,49.78,-74.85,77.0,53,1,8.05,clear sky,0.0,0.0
470,Nguruka,TZ,-5.11,31.04,61.93,66,0,2.37,clear sky,0.0,0.0
471,Loandjili,CG,-4.76,11.86,69.8,94,75,2.24,mist,0.0,0.0
472,Bakchar,RU,57.02,82.07,57.67,58,100,10.36,overcast clouds,0.0,0.0
473,Haysville,US,37.56,-97.35,82.4,57,20,4.7,few clouds,0.0,0.0
474,Vuktyl,RU,63.86,57.31,42.28,74,26,10.74,scattered clouds,0.0,0.0
475,Meulaboh,ID,4.14,96.13,74.3,97,100,4.72,heavy intensity rain,10.13,0.0
476,Ocos,GT,14.51,-92.19,84.2,83,75,2.24,broken clouds,0.0,0.0
477,Opuwo,NA,-18.06,13.84,51.76,45,0,6.2,clear sky,0.0,0.0
478,Marrakesh,MA,31.63,-8.01,77.0,44,0,2.24,clear sky,0.0,0.0
479,Kungurtug,RU,50.6,97.52,53.67,71,39,2.57,scattered clouds,0.0,0.0
480,Tokonou,GN,9.65,-9.78,71.55,92,0,8.5,clear sky,0.0,0.0
481,Beyneu,KZ,45.32,55.2,78.76,16,100,0.56,overcast clouds,0.0,0.0
482,Oeiras Do Para,BR,-2.0,-49.85,74.71,95,100,2.89,overcast clouds,0.0,0.0
483,Rawson,AR,-43.3,-65.1,49.8,48,7,9.04,clear sky,0.0,0.0
484,Coahuayana,MX,18.73,-103.68,80.6,69,75,3.31,broken clouds,0.0,0.0
485,Lompoc,US,34.64,-120.46,64.0,77,8,11.41,clear sky,0.0,0.0
486,Sarnia,CA,42.98,-82.4,75.2,64,90,3.36,overcast clouds,0.0,0.0
487,Taylor,US,32.3,-99.83,89.01,58,1,14.99,clear sky,0.0,0.0
488,Yarkovo,RU,57.4,67.08,45.0,83,0,6.93,clear sky,0.0,0.0
489,Saint-Louis,SN,16.33,-15.0,89.6,46,0,4.7,clear sky,0.0,0.0
490,Ulladulla,AU,-35.35,150.47,55.4,54,20,14.99,few clouds,0.0,0.0
491,Hofn,IS,64.25,-15.21,49.5,93,100,12.33,moderate rain,2.64,0.0
492,Ketchikan,US,55.34,-131.65,57.2,67,75,11.41,broken clouds,0.0,0.0
493,Saint-Leu,RE,-21.15,55.28,68.0,68,13,8.05,few clouds,0.0,0.0
494,Bryan,US,30.67,-96.37,78.8,83,1,6.93,clear sky,0.0,0.0
495,Karasburg,NA,-28.02,18.75,51.73,44,0,7.87,clear sky,0.0,0.0
496,Malanje,AO,-9.54,16.34,54.88,40,0,2.37,clear sky,0.0,0.0
497,Saint-Augustin,CA,51.23,-58.65,51.37,83,94,10.92,overcast clouds,0.0,0.0
498,Westport,US,41.14,-73.36,75.99,73,1,10.29,clear sky,0.0,0.0
499,Brancoveni,RO,44.32,24.3,64.0,88,3,2.24,clear sky,0.0,0.0
500,Misratah,LY,32.38,15.09,70.97,72,0,14.74,clear sky,0.0,0.0
501,Araripina,BR,-7.58,-40.5,68.5,75,8,9.57,clear sky,0.0,0.0
502,Nieves,PH,15.33,120.95,87.8,70,75,4.7,haze,0.0,0.0
503,Nizhneangarsk,RU,55.78,109.55,60.51,54,0,2.93,clear sky,0.0,0.0
504,Odweyne,SO,9.41,45.06,74.55,58,81,11.72,broken clouds,0.0,0.0
505,Yerbogachen,RU,61.28,108.01,72.72,51,97,5.77,overcast clouds,0.0,0.0
506,Samfya,ZM,-11.36,29.56,52.27,76,0,6.29,clear sky,0.0,0.0
507,Northam,GB,51.03,-4.22,52.0,95,0,5.99,clear sky,0.0,0.0
508,Ishigaki,JP,24.34,124.16,87.8,84,75,12.75,broken clouds,0.0,0.0
509,Phalaborwa,ZA,-23.94,31.14,64.4,52,0,5.82,clear sky,0.0,0.0
510,Crib Point,AU,-38.35,145.2,50.0,96,100,16.37,light rain,0.42,0.0
511,Boende,CD,-0.22,20.87,73.36,67,0,1.83,clear sky,0.0,0.0
512,Ancud,CL,-41.87,-73.82,46.99,100,90,17.22,overcast clouds,0.0,0.0
513,Tortosa,ES,40.81,0.52,75.99,40,0,11.99,clear sky,0.0,0.0
514,Balvi,LV,57.13,27.27,58.39,72,80,5.93,broken clouds,0.0,0.0
515,Fort Nelson,CA,58.81,-122.7,64.4,52,75,3.36,broken clouds,0.0,0.0
516,Celestun,MX,20.87,-90.4,83.55,77,66,15.17,light rain,0.99,0.0
517,Graulhet,FR,43.77,1.99,68.0,72,40,5.82,scattered clouds,0.0,0.0
518,Rock Sound,BS,24.9,-76.2,82.24,79,100,6.98,overcast clouds,0.0,0.0
519,Tongchuan,CN,35.08,109.09,73.08,65,100,1.77,overcast clouds,0.0,0.0
520,Cockburn Town,TC,21.46,-71.14,82.89,83,2,19.77,clear sky,0.0,0.0
521,Chippewa Falls,US,44.94,-91.39,66.99,93,75,4.21,moderate rain,2.54,0.0
522,Severobaykalsk,RU,55.65,109.32,62.13,51,0,3.11,clear sky,0.0,0.0
523,Krasnoselkup,RU,65.7,82.47,50.76,87,100,14.63,light rain,0.37,0.0
524,Mitu,CO,1.2,-70.17,73.4,95,88,1.54,light rain,0.84,0.0
525,Tarbert,GB,55.86,-5.42,51.8,93,0,10.29,clear sky,0.0,0.0
526,Urengoy,RU,65.97,78.37,51.01,83,92,11.92,overcast clouds,0.0,0.0
527,Mezen,RU,65.85,44.24,48.34,63,100,9.1,overcast clouds,0.0,0.0
528,Valleyview,CA,55.07,-117.29,70.65,53,38,4.23,scattered clouds,0.0,0.0
529,Hornepayne,CA,49.21,-84.77,64.45,61,0,6.69,clear sky,0.0,0.0
530,Krasnoborsk,RU,61.56,45.93,42.35,85,87,3.56,overcast clouds,0.0,0.0
531,Iida,JP,35.52,137.82,64.99,81,100,1.99,moderate rain,2.85,0.0
532,Muswellbrook,AU,-32.27,150.9,57.0,54,84,8.99,broken clouds,0.0,0.0
533,Purna,IN,19.18,77.05,80.2,75,100,11.72,overcast clouds,0.0,0.0
534,Paamiut,GL,61.99,-49.67,41.7,83,100,16.91,overcast clouds,0.0,0.0
535,Tobol,KZ,52.68,62.58,52.02,77,94,15.12,overcast clouds,0.0,0.0
536,Burnie,AU,-41.07,145.92,54.0,71,100,7.0,light rain,0.18,0.0
537,Rorvik,NO,64.86,11.24,58.77,81,8,9.01,clear sky,0.0,0.0
538,Sao Joao Da Barra,BR,-21.64,-41.05,72.0,88,0,11.48,clear sky,0.0,0.0
539,Najran,SA,17.49,44.13,77.0,20,49,3.89,scattered clouds,0.0,0.0
540,Pangkalanbuun,ID,-2.68,111.62,78.31,90,100,3.33,light rain,0.51,0.0
541,Iquique,CL,-20.22,-70.14,62.6,67,75,4.7,broken clouds,0.0,0.0
542,Sukhumi,GE,43.0,41.02,66.0,79,9,4.43,clear sky,0.0,0.0
543,Bardsir,IR,29.92,56.57,66.2,25,0,4.7,clear sky,0.0,0.0
544,Pemberton,CA,50.32,-122.8,64.4,55,40,2.24,scattered clouds,0.0,0.0
545,Vysha,RU,53.85,42.38,48.61,94,3,5.48,clear sky,0.0,0.0
546,Kolyvan,RU,55.31,82.74,60.8,51,100,11.18,overcast clouds,0.0,0.0
547,Canavieiras,BR,-15.68,-38.95,70.23,87,10,5.82,clear sky,0.0,0.0
548,Palmeira,BR,-25.43,-50.01,57.99,87,0,2.15,clear sky,0.0,0.0
549,Saint-Francois,FR,46.42,3.91,64.4,72,90,5.82,overcast clouds,0.0,0.0
550,Amapa,BR,1.0,-52.0,72.46,97,100,2.28,overcast clouds,0.0,0.0
551,Ayabaca,PE,-4.64,-79.71,50.31,100,20,1.57,few clouds,0.0,0.0
552,Margherita,IN,27.28,95.68,77.0,100,90,11.41,moderate rain,0.0,0.0
553,Scarborough,GB,54.28,-0.4,53.01,85,0,1.99,clear sky,0.0,0.0
554,Carahue,CL,-38.7,-73.17,46.4,93,100,3.36,overcast clouds,0.0,0.0
555,Mogadishu,SO,2.04,45.34,78.62,84,100,20.54,overcast clouds,0.0,0.0
556,Aksarka,RU,66.56,67.8,42.96,89,100,4.74,light rain,0.25,0.0
557,Khartoum,SD,15.55,32.53,84.2,30,0,10.29,clear sky,0.0,0.0
558,Pimentel,PE,-6.84,-79.93,64.67,83,1,11.79,clear sky,0.0,0.0
559,Sidney,AU,-33.87,151.21,59.0,58,75,11.41,broken clouds,0.0,0.0
560,Villa Union,MX,23.2,-106.23,86.0,45,5,3.36,clear sky,0.0,0.0
561,Yingcheng,CN,30.95,113.55,71.6,100,90,2.24,light rain,0.0,0.0
562,Vuyyuru,IN,16.37,80.85,80.6,88,90,4.7,haze,0.0,0.0
563,Winslow,US,35.02,-110.7,96.8,8,1,8.05,clear sky,0.0,0.0
564,La Palma,US,33.85,-118.05,82.0,50,1,9.17,clear sky,0.0,0.0
565,Kloulklubed,PW,7.04,134.26,80.6,88,90,3.36,shower rain,0.0,0.0
566,Ampanihy,MG,-24.7,44.75,65.91,82,74,2.24,broken clouds,0.0,0.0
567,Perry,US,37.25,-83.2,71.6,94,90,3.62,overcast clouds,0.0,0.0
568,Faya,SA,18.39,42.45,68.0,60,1,4.09,clear sky,0.0,0.0
569,Mandalgovi,MN,45.76,106.27,62.67,55,100,10.0,overcast clouds,0.0,0.0
570,Gashua,NG,12.87,11.05,87.35,49,0,15.1,clear sky,0.0,0.0
